{
  "trip_meta": {
    "title": "ğŸŒ¸ æ±åŒ—æ«»èŠ±æ”å½±ä¹‹æ—… 2026",
    "days_count": 7,
    "travelers": 2,
    "budget": 100000,
    "location": "ä»™å°ãƒ»æœƒæ´¥è‹¥æ¾ãƒ»ç™½çŸ³å·ãƒ»å±±å¯º",
    "start_date": "2026-04-15",
    "home_currency": "TWD",
    "destination_currency": "JPY",
    "exchange_rate": 0.215
  },
  "days": [
    {
      "dayNumber": 1,
      "date": "2026-04-15 (é€±ä¸‰)",
      "theme": "ä»™å°åˆ°ç€ãƒ»å¸‚å€æ¢ç´¢",
      "weather": null,
      "alternatives": "é›¨å¤©å‚™æ¡ˆï¼šä»™å°å¸‚åšç‰©é¤¨ã€ä¸‰è¶Šä»™å°åº—",
      "checklist": ["JR Pass å…Œæ›", "Suica å„²å€¼", "ç©ºæ‹æ©Ÿé›»æ± æª¢æŸ¥", "ç›¸æ©Ÿè¨˜æ†¶å¡æ¸…ç©º", "ç¢ºèªæ˜æ—¥ç­è¡¨"],
      "stops": [
        {
          "time": "13:35",
          "name": "ä»™å°ç©ºæ¸¯ (SDJ)",
          "description": "æŠµé”èˆ‡å…¥å¢ƒï¼Œè³¼è²· Suica å¡",
          "transport": "",
          "cost": 0,
          "currency": "JPY",
          "lat": 38.1396,
          "lng": 140.9169,
          "tags": ["æŠµé”"]
        },
        {
          "time": "14:30",
          "name": "ä»™å°é§…",
          "description": "JR Pass å…Œæ›ã€è¡Œææš«æ”¾",
          "transport": "ç©ºæ¸¯ç·š (25åˆ†)",
          "cost": 660,
          "currency": "JPY",
          "lat": 38.2602,
          "lng": 140.8824,
          "tags": ["äº¤é€šæ¨ç´"]
        },
        {
          "time": "15:00",
          "name": "ãƒ›ãƒ†ãƒ«ãƒ“ã‚¹ã‚¿ä»™å° Check-in",
          "description": "æ”¾ä¸‹è¡Œæï¼Œç¨ä½œä¼‘æ¯ã€‚é…’åº—ä½æ–¼ä»™å°ç«™é™„è¿‘ï¼Œäº¤é€šä¾¿åˆ©ã€‚",
          "transport": "æ­¥è¡Œ (5åˆ†)",
          "cost": 0,
          "currency": "JPY",
          "lat": 38.2575,
          "lng": 140.8796,
          "tags": ["ä½å®¿"]
        },
        {
          "time": "15:30",
          "name": "é’è‘‰åŸè·¡ï¼ˆä»™å°åŸï¼‰",
          "description": "ä¼Šé”æ”¿å®—å…¬é¨é¦¬åƒã€ä»™å°å¸‚å€å…¨æ™¯æ‹æ”ã€‚å‚æ™šå…‰ç·šçµ•ä½³ã€‚",
          "transport": "åœ°éµæ±è¥¿ç·š (10åˆ†)",
          "cost": 0,
          "currency": "JPY",
          "lat": 38.2532,
          "lng": 140.8550,
          "tags": ["ğŸ“· æ”å½±é»", "â›©ï¸ æ­·å²", "ğŸŒ¸ æ«»èŠ±"]
        },
        {
          "time": "18:00",
          "name": "ç‰›ãŸã‚“é€šã‚Šæ™šé¤",
          "description": "ä»™å°åç‰©ç‰›èˆŒæ–™ç†ï¼æ¨è–¦ã€Œåˆ©ä¹…ã€æˆ–ã€Œå–„æ²»éƒã€ï¼Œå»ºè­°å…ˆé ç´„ã€‚",
          "transport": "æ­¥è¡Œ (15åˆ†)",
          "cost": 3000,
          "currency": "JPY",
          "lat": 38.2605,
          "lng": 140.8820,
          "tags": ["ğŸ– ç¾é£Ÿ", "âš ï¸ éœ€é ç´„"]
        }
      ],
      "accommodation": "ãƒ›ãƒ†ãƒ«ãƒ“ã‚¹ã‚¿ä»™å°",
      "accommodation_cost": 6000,
      "accommodation_currency": "JPY"
    },
    {
      "dayNumber": 2,
      "date": "2026-04-16 (é€±å››)",
      "theme": "ç™½çŸ³å·ä¸€ç›®åƒæœ¬æ«» ğŸŒ¸ é‡é»è¡Œç¨‹",
      "weather": null,
      "alternatives": "é›¨å¤©å‚™æ¡ˆï¼šè—ç‹ç‹ç‹¸æ‘ã€ç‘åš´å¯º",
      "checklist": ["æ—©èµ·ï¼07:30å‡ºé–€", "ç©ºæ‹æ©Ÿé›»æ± Ã—3", "æŠ˜ç–Šæ¤…", "é›¨å…·ï¼ˆå‚™ç”¨ï¼‰", "å‚™ç”¨è¨˜æ†¶å¡"],
      "stops": [
        {
          "time": "08:00",
          "name": "ãƒ›ãƒ†ãƒ«å‡ºç™¼",
          "description": "å»ºè­°æ—©èµ·é¿é–‹äººæ½®ï¼Œ09:00å‰æŠµé”å…‰ç·šæœ€ç¾",
          "transport": "",
          "cost": 0,
          "currency": "JPY",
          "lat": 38.2575,
          "lng": 140.8796,
          "tags": ["å‡ºç™¼"]
        },
        {
          "time": "09:00",
          "name": "ç™½çŸ³å·ä¸€ç›®åƒæœ¬æ«»",
          "description": "æœ¬æ¬¡æ—…ç¨‹é‡é»ï¼é•·ç´„8å…¬é‡Œçš„æ«»èŠ±éš§é“ï¼Œ1,200æ ªæŸ“äº•å‰é‡æ«»ã€‚ğŸš ç©ºæ‹æ¨è–¦ï¼ˆè«‹éµå®ˆç¦é£›å€è¦å®šï¼‰",
          "transport": "JRæ±åŒ—æœ¬ç·š (35åˆ†)",
          "cost": 840,
          "currency": "JPY",
          "lat": 38.0502,
          "lng": 140.7324,
          "tags": ["ğŸŒ¸ å¿…è¨ª", "ğŸ“· æ”å½±é»", "ğŸš å¯ç©ºæ‹", "ğŸŒ… é»ƒé‡‘æ™‚æ®µ 8-10é»"]
        },
        {
          "time": "12:00",
          "name": "èˆ¹å²¡åŸå€å…¬åœ’åˆé¤",
          "description": "å…¬åœ’å…§æœ‰å±•æœ›å°å¯ä¿¯ç°æ«»èŠ±å…¨æ™¯ã€‚åˆé¤å¯æ”œå¸¶ä¾¿ç•¶æˆ–åœ¨é™„è¿‘é¤å»³ç”¨é¤ã€‚",
          "transport": "æ­¥è¡Œ (15åˆ†)",
          "cost": 1200,
          "currency": "JPY",
          "lat": 38.0420,
          "lng": 140.7300,
          "tags": ["ğŸ± åˆé¤", "ğŸ“· å±•æœ›å°"]
        },
        {
          "time": "15:00",
          "name": "è¿”å›ä»™å°é§…",
          "description": "JRè¿”å›ä»™å°",
          "transport": "JRæ±åŒ—æœ¬ç·š (35åˆ†)",
          "cost": 840,
          "currency": "JPY",
          "lat": 38.2602,
          "lng": 140.8824,
          "tags": ["äº¤é€š"]
        },
        {
          "time": "16:00",
          "name": "ä»™å°é§…å‘¨é‚Šè³¼ç‰©",
          "description": "PARCOã€S-PALã€LOFT æ¡è²·ç´€å¿µå“ã€æ”å½±ç”¨å“è£œçµ¦",
          "transport": "æ­¥è¡Œ",
          "cost": 0,
          "currency": "JPY",
          "lat": 38.2602,
          "lng": 140.8824,
          "tags": ["ğŸ›ï¸ è³¼ç‰©"]
        }
      ],
      "accommodation": "ãƒ›ãƒ†ãƒ«ãƒ“ã‚¹ã‚¿ä»™å°",
      "accommodation_cost": 6000,
      "accommodation_currency": "JPY"
    },
    {
      "dayNumber": 3,
      "date": "2026-04-17 (é€±äº”)",
      "theme": "å±±å½¢å±±å¯ºãƒ»è§€éŸ³å¯ºå· ğŸŒ¸ é‡é»è¡Œç¨‹",
      "weather": null,
      "alternatives": "é›¨å¤©å‚™æ¡ˆï¼šå±±å½¢ç¾è¡“é¤¨ã€æœ€ä¸Šå·éŠèˆ¹ï¼ˆå®¤å…§ç­‰å€™ï¼‰",
      "checklist": ["ç™»å±±é‹/èˆ’é©æ­¥è¡Œé‹", "æ°´å£º", "æŠ˜ç–Šç™»å±±æ–ï¼ˆå¯é¸ï¼‰", "é˜²é¢¨å¤–å¥—ï¼ˆå±±é ‚è¼ƒå†·ï¼‰", "å‚™ç”¨é›»æ± "],
      "stops": [
        {
          "time": "08:30",
          "name": "ãƒ›ãƒ†ãƒ«å‡ºç™¼",
          "description": "å‰å¾€å±±å½¢",
          "transport": "",
          "cost": 0,
          "currency": "JPY",
          "lat": 38.2575,
          "lng": 140.8796,
          "tags": ["å‡ºç™¼"]
        },
        {
          "time": "09:30",
          "name": "å±±å¯ºé§…",
          "description": "æŠµé”å±±å¯ºå…¥å£",
          "transport": "JRä»™å±±ç·š (50åˆ†)",
          "cost": 1160,
          "currency": "JPY",
          "lat": 38.3095,
          "lng": 140.4358,
          "tags": ["ğŸšƒ äº¤é€š"]
        },
        {
          "time": "10:00",
          "name": "ç«‹çŸ³å¯ºï¼ˆå±±å¯ºï¼‰",
          "description": "1,015éšçŸ³æ¢¯çš„å¤è€å¯ºé™¢ï¼Œå±±é ‚å¯ä¿¯ç°å±±å¯ºç”ºå…¨æ™¯ã€‚å¿…æ‹ã€Œäº”å¤§å ‚ã€èˆ‡ã€Œç´ç¶“å ‚ã€ã€‚âš ï¸ æœ¬æ®¿ç¦ç©ºæ‹",
          "transport": "æ­¥è¡Œ",
          "cost": 700,
          "currency": "JPY",
          "lat": 38.3120,
          "lng": 140.4346,
          "tags": ["â›©ï¸ å¿…è¨ª", "ğŸ“· æ”å½±é»", "ğŸŒ¸ æ«»èŠ±", "ğŸš« ç¦ç©ºæ‹"]
        },
        {
          "time": "12:30",
          "name": "å±±å¯ºç”ºåˆé¤",
          "description": "è•éº¥éºµè€åº—ã€Œé‡å·å±‹ã€æˆ–ã€Œå±±å¯ºè•éº¥ã€ï¼Œå“åšåœ¨åœ°å±±å½¢è•éº¥éºµã€‚å¿…åƒï¼šåŠ›é¤…",
          "transport": "æ­¥è¡Œä¸‹å±±",
          "cost": 1500,
          "currency": "JPY",
          "lat": 38.3095,
          "lng": 140.4358,
          "tags": ["ğŸœ ç¾é£Ÿ"]
        },
        {
          "time": "14:00",
          "name": "è§€éŸ³å¯ºå·æ«»ä¸¦æœ¨",
          "description": "å¿…è¨ªï¼2å…¬é‡Œé•·çš„æ«»èŠ±éš§é“ï¼Œå€’å½±æ‹æ”çµ•ä½³ã€‚ğŸš å‘¨é‚Šå¯ç©ºæ‹",
          "transport": "JRè‡³å¤å·é§… (40åˆ†)",
          "cost": 680,
          "currency": "JPY",
          "lat": 38.5705,
          "lng": 140.9555,
          "tags": ["ğŸŒ¸ å¿…è¨ª", "ğŸ“· æ”å½±é»", "ğŸš å¯ç©ºæ‹", "ğŸ’§ å€’å½±"]
        },
        {
          "time": "17:30",
          "name": "è¿”å›ä»™å°",
          "description": "JRè¿”å›ä»™å°é§…",
          "transport": "JR (50åˆ†)",
          "cost": 860,
          "currency": "JPY",
          "lat": 38.2602,
          "lng": 140.8824,
          "tags": ["ğŸšƒ äº¤é€š"]
        }
      ],
      "accommodation": "ãƒ›ãƒ†ãƒ«ãƒ“ã‚¹ã‚¿ä»™å°",
      "accommodation_cost": 6000,
      "accommodation_currency": "JPY"
    },
    {
      "dayNumber": 4,
      "date": "2026-04-18 (é€±å…­)",
      "theme": "ä¼Šä½é ˆç¾ãƒ»è ¶é¤Šç¥ç¤¾ â†’ æœƒæ´¥è‹¥æ¾ ğŸŒ¸ é‡é»è¡Œç¨‹",
      "weather": null,
      "alternatives": "é›¨å¤©å‚™æ¡ˆï¼šä¼šæ´¥æ­¦å®¶å±‹æ•·ï¼ˆå®¤å…§ï¼‰ã€ä¼šæ´¥ã®æ­´å²ãƒŸãƒ¥ãƒ¼ã‚¸ã‚¢ãƒ ",
      "checklist": ["ææ—©å‡ºé–€ï¼ˆ08:00ï¼‰", "ä»™å°æ—…é¤¨é€€æˆ¿", "è¡Œæç¢ºèª", "JRæ™‚åˆ»è¡¨ç¢ºèª", "ä¼šæ´¥è‹¥æ¾æ—…é¤¨ç¢ºèª"],
      "stops": [
        {
          "time": "08:00",
          "name": "ãƒ›ãƒ†ãƒ«é€€æˆ¿",
          "description": "é€€æˆ¿ä¸¦æ”œå¸¶æ‰€æœ‰è¡Œæ",
          "transport": "",
          "cost": 0,
          "currency": "JPY",
          "lat": 38.2575,
          "lng": 140.8796,
          "tags": ["é€€æˆ¿"]
        },
        {
          "time": "08:30",
          "name": "ä»™å°é§…",
          "description": "æ­ä¹˜JRç£è¶Šè¥¿ç·š",
          "transport": "æ­¥è¡Œ",
          "cost": 0,
          "currency": "JPY",
          "lat": 38.2602,
          "lng": 140.8824,
          "tags": ["äº¤é€š"]
        },
        {
          "time": "10:00",
          "name": "ä¼Šä½é ˆç¾ç¥ç¤¾",
          "description": "å¿…è¨ªï¼æœƒæ´¥ä¸‰å¤§ç¥ç¤¾ä¹‹ä¸€ï¼Œæœ±ç´…è‰²æ¨“é–€èˆ‡æ«»èŠ±ç¶“å…¸æ§‹åœ–ã€‚âš ï¸ ç¥ç¤¾å¢ƒå…§ç¦ç©ºæ‹",
          "transport": "JRç£è¶Šè¥¿ç·šè‡³ä¼šæ´¥å‚ä¸‹é§… (90åˆ†)",
          "cost": 2420,
          "currency": "JPY",
          "lat": 37.5569,
          "lng": 139.8282,
          "tags": ["â›©ï¸ å¿…è¨ª", "ğŸ“· æ”å½±é»", "ğŸŒ¸ æ«»èŠ±", "ğŸš« ç¦ç©ºæ‹"]
        },
        {
          "time": "13:00",
          "name": "è ¶é¤Šç¥ç¤¾ï¼ˆã“ãŒã­ã˜ã‚“ã˜ã‚ƒï¼‰",
          "description": "å¿…è¨ªï¼è¢«è­½ç‚ºã€Œæœƒæ´¥æœ€ç¾æ«»èŠ±ç¥ç¤¾ã€ï¼Œæ•¸ç™¾å¹´è€æ‰æœ¨èˆ‡æ«»èŠ±äº¤éŒ¯ã€‚ğŸš å‘¨é‚Šå¯ç©ºæ‹",
          "transport": "è¨ˆç¨‹è»Š (20åˆ†)",
          "cost": 3000,
          "currency": "JPY",
          "lat": 37.5215,
          "lng": 139.7950,
          "tags": ["â›©ï¸ å¿…è¨ª", "ğŸ“· æ”å½±é»", "ğŸŒ¸ æ«»èŠ±", "ğŸš å¯ç©ºæ‹", "ğŸŒ² æ‰æœ¨"]
        },
        {
          "time": "15:30",
          "name": "ä¼šæ´¥è‹¥æ¾é§…",
          "description": "æ­ä¹˜JRè‡³ä¼šæ´¥è‹¥æ¾",
          "transport": "è¨ˆç¨‹è»Š+JR (40åˆ†)",
          "cost": 1200,
          "currency": "JPY",
          "lat": 37.5075,
          "lng": 139.9304,
          "tags": ["ğŸšƒ äº¤é€š"]
        },
        {
          "time": "16:00",
          "name": "æ±æ©«innä¼šæ´¥è‹¥æ¾ Check-in",
          "description": "å…¥ä½é…’åº—ï¼Œæ™šä¸Šå¯æ•£æ­¥è‡³ä¸ƒæ—¥ç”ºé€š",
          "transport": "æ­¥è¡Œ (5åˆ†)",
          "cost": 0,
          "currency": "JPY",
          "lat": 37.5080,
          "lng": 139.9310,
          "tags": ["ä½å®¿"]
        },
        {
          "time": "18:00",
          "name": "ä¸ƒæ—¥ç”ºé€šæ™šé¤ãƒ»æ•£æ­¥",
          "description": "ä¼šæ´¥é†¬æ±è±¬æ’é£¯æ¨è–¦ã€Œè‹¥æ¾å±‹ã€ã€‚æ„Ÿå—åŸä¸‹ç”ºæ°›åœã€‚",
          "transport": "æ­¥è¡Œ (10åˆ†)",
          "cost": 2500,
          "currency": "JPY",
          "lat": 37.4945,
          "lng": 139.9295,
          "tags": ["ğŸ± æ™šé¤", "ğŸ¶ åœ°é…’"]
        }
      ],
      "accommodation": "æ±æ©«innä¼šæ´¥è‹¥æ¾",
      "accommodation_cost": 5500,
      "accommodation_currency": "JPY"
    },
    {
      "dayNumber": 5,
      "date": "2026-04-19 (é€±æ—¥)",
      "theme": "æœƒæ´¥è‹¥æ¾å¸‚å€ãƒ»é¶´åŸ",
      "weather": null,
      "alternatives": "é›¨å¤©å‚™æ¡ˆï¼šä¼šæ´¥åšç‰©é¤¨ã€ä¼šæ´¥è‘µã‚«ãƒ•ã‚§",
      "checklist": ["åŸå…§æ«»èŠ±æ‹æ”", "èŒ¶å®¤é ç´„", "æ­¦å®¶å±‹æ•·é–€ç¥¨", "æœƒæ´¥ç´€å¿µå“"],
      "stops": [
        {
          "time": "09:00",
          "name": "é¶´åŸï¼ˆä¼šæ´¥è‹¥æ¾åŸï¼‰",
          "description": "æ—¥æœ¬å”¯ä¸€ç´…ç“¦å¤©å®ˆé–£ï¼ŒåŸå…§æ«»èŠ±ç´„1,000æ ªã€‚æ¨è–¦ç™»åŸæ‹æ”360åº¦å…¨æ™¯ã€‚âš ï¸ åŸå…§ç¦ç©ºæ‹",
          "transport": "å¾ªç’°å·´å£« (15åˆ†)",
          "cost": 520,
          "currency": "JPY",
          "lat": 37.4876,
          "lng": 139.9297,
          "tags": ["ğŸ¯ å¿…è¨ª", "ğŸ“· æ”å½±é»", "ğŸŒ¸ æ«»èŠ±", "ğŸš« ç¦ç©ºæ‹"]
        },
        {
          "time": "12:00",
          "name": "èŒ¶å®¤éºŸé–£ãƒ»æŠ¹èŒ¶é«”é©—",
          "description": "é¶´åŸå…§çš„èŒ¶å®¤ï¼Œå“åšæ­£çµ±æŠ¹èŒ¶èˆ‡å’Œè“å­",
          "transport": "æ­¥è¡Œ",
          "cost": 800,
          "currency": "JPY",
          "lat": 37.4876,
          "lng": 139.9297,
          "tags": ["ğŸµ é«”é©—", "ğŸ¡ å’Œè“å­"]
        },
        {
          "time": "14:00",
          "name": "æœƒæ´¥æ­¦å®¶å±‹æ•·",
          "description": "ä¿å­˜å®Œæ•´çš„æ±Ÿæˆ¶æ™‚ä»£æ­¦å®¶ä½å®…ï¼Œäº†è§£æœƒæ´¥è—©çš„æ­·å²",
          "transport": "æ­¥è¡Œ (20åˆ†)",
          "cost": 650,
          "currency": "JPY",
          "lat": 37.4815,
          "lng": 139.9290,
          "tags": ["ğŸ›ï¸ æ­·å²", "ğŸ“· æ”å½±é»"]
        },
        {
          "time": "17:00",
          "name": "ä¸ƒæ—¥ç”ºé€šæ•£ç­–",
          "description": "æ‡·èˆŠè¡—é“æ¼«æ­¥ï¼Œé¸è³¼æœƒæ´¥å¡—ã€èµ¤ã¹ã“ç­‰ç´€å¿µå“",
          "transport": "æ­¥è¡Œ",
          "cost": 0,
          "currency": "JPY",
          "lat": 37.4945,
          "lng": 139.9295,
          "tags": ["ğŸ›ï¸ è³¼ç‰©", "ğŸ¨ å·¥è—å“"]
        },
        {
          "time": "18:30",
          "name": "ä¼šæ´¥ã‚½ãƒ¼ã‚¹ã‚«ãƒ„ä¸¼æ™šé¤",
          "description": "æœƒæ´¥åç‰©ï¼é…¥è„†ç‚¸è±¬æ’æ·‹ä¸Šç‰¹è£½é†¬æ±ï¼Œæ¨è–¦ã€Œæ»æ³¢ã€æˆ–ã€Œè‹¥æ¾å±‹ã€",
          "transport": "æ­¥è¡Œ",
          "cost": 1800,
          "currency": "JPY",
          "lat": 37.4945,
          "lng": 139.9295,
          "tags": ["ğŸ± å¿…åƒç¾é£Ÿ"]
        }
      ],
      "accommodation": "æ±æ©«innä¼šæ´¥è‹¥æ¾",
      "accommodation_cost": 5500,
      "accommodation_currency": "JPY"
    },
    {
      "dayNumber": 6,
      "date": "2026-04-20 (é€±ä¸€)",
      "theme": "è¿”å›ä»™å°ãƒ»ä»™å°æ°´æ—é¤¨ ğŸŒ¸ é‡é»è¡Œç¨‹",
      "weather": null,
      "alternatives": "é›¨å¤©å‚™æ¡ˆï¼šä»™å°å¸‚ç§‘å­¸é¤¨ã€Loopleä»™å°å·´å£«å¸‚å€éŠ",
      "checklist": ["ä¼šæ´¥æ—…é¤¨é€€æˆ¿", "JRè»Šç¥¨ç¢ºèª", "æ°´æ—é¤¨é–€ç¥¨", "ä¼´æ‰‹ç¦®æ¸…å–®", "ç¾é‡‘ç¢ºèª"],
      "stops": [
        {
          "time": "09:00",
          "name": "æ±æ©«inné€€æˆ¿",
          "description": "é€€æˆ¿ä¸¦å‰å¾€ä¼šæ´¥è‹¥æ¾é§…",
          "transport": "",
          "cost": 0,
          "currency": "JPY",
          "lat": 37.5080,
          "lng": 139.9310,
          "tags": ["é€€æˆ¿"]
        },
        {
          "time": "09:30",
          "name": "ä¼šæ´¥è‹¥æ¾é§…",
          "description": "æ­ä¹˜JRç£è¶Šè¥¿ç·šè¿”å›ä»™å°",
          "transport": "æ­¥è¡Œ",
          "cost": 0,
          "currency": "JPY",
          "lat": 37.5075,
          "lng": 139.9304,
          "tags": ["äº¤é€š"]
        },
        {
          "time": "11:30",
          "name": "ä»™å°é§…",
          "description": "æŠµé”ä»™å°",
          "transport": "JRç£è¶Šè¥¿ç·š (2hr)",
          "cost": 2420,
          "currency": "JPY",
          "lat": 38.2602,
          "lng": 140.8824,
          "tags": ["ğŸšƒ äº¤é€š"]
        },
        {
          "time": "12:00",
          "name": "ä»™å°å¤§éƒ½æœƒé£¯åº— Check-in",
          "description": "å…¥ä½ä»™å°ç«™é™„è¿‘å¤§éƒ½æœƒé£¯åº—ï¼Œä½ç½®ä¾¿åˆ©",
          "transport": "æ­¥è¡Œ (5åˆ†)",
          "cost": 0,
          "currency": "JPY",
          "lat": 38.2568,
          "lng": 140.8808,
          "tags": ["ä½å®¿"]
        },
        {
          "time": "13:00",
          "name": "ä»™å°ã†ã¿ã®æœæ°´æ—é¤¨",
          "description": "å¿…è¨ªï¼æ±åŒ—æœ€å¤§ç´šæ°´æ—é¤¨ï¼Œè¶…é100å€‹æ°´æ§½ã€‚é¤¨å¤–æœ‰æ«»èŠ±æ¨¹å¯æ‹æ”ã€‚âš ï¸ é¤¨å…§ç¦ç©ºæ‹",
          "transport": "æ­¥è¡Œ (15åˆ†)",
          "cost": 2400,
          "currency": "JPY",
          "lat": 38.2647,
          "lng": 140.9989,
          "tags": ["ğŸ‹ å¿…è¨ª", "ğŸ“· æ”å½±é»", "ğŸš« ç¦ç©ºæ‹"]
        },
        {
          "time": "17:30",
          "name": "ä»™å°é§…å‘¨é‚Šæ™šé¤ãƒ»è³¼ç‰©",
          "description": "ä»™å°é§…3Fé¤å»³è¡—æˆ–åœ°ä¸‹è¡—ç¾é£Ÿï¼Œæœ€å¾Œæ¡è²·ä¼´æ‰‹ç¦®",
          "transport": "æ­¥è¡Œ",
          "cost": 2500,
          "currency": "JPY",
          "lat": 38.2602,
          "lng": 140.8824,
          "tags": ["ğŸ± æ™šé¤", "ğŸ›ï¸ è³¼ç‰©"]
        }
      ],
      "accommodation": "ä»™å°å¤§éƒ½æœƒé£¯åº—",
      "accommodation_cost": 7000,
      "accommodation_currency": "JPY"
    },
    {
      "dayNumber": 7,
      "date": "2026-04-21 (é€±äºŒ)",
      "theme": "ä»™å°æœ€å¾Œå·¡ç¦®ãƒ»æ­¸åœ‹",
      "weather": null,
      "alternatives": "",
      "checklist": ["æ—…é¤¨é€€æˆ¿ï¼ˆ11:00å‰ï¼‰", "è­·ç…§/æ©Ÿç¥¨ç¢ºèª", "JR Pass æ­¸é‚„", "ç¾é‡‘é¤˜é¡ç¢ºèª", "å……é›»å™¨/è½‰æ¥é ­"],
      "stops": [
        {
          "time": "08:00",
          "name": "æœå¸‚ãƒ»æ—©é¤",
          "description": "ä»™å°æœå¸‚æˆ–ä»™å°é§…å‘¨é‚Šäº«ç”¨æœ€å¾Œçš„ä»™å°æ—©é¤ï¼Œæ¨è–¦ã€Œæ¯›è±†éº»ç³¬ã€æˆ–ã€Œæµ·é®®ä¸¼ã€",
          "transport": "",
          "cost": 800,
          "currency": "JPY",
          "lat": 38.2602,
          "lng": 140.8824,
          "tags": ["ğŸ¡ æ—©é¤"]
        },
        {
          "time": "09:30",
          "name": "æœ€å¾Œæ¡è²·",
          "description": "ä»™å°é§…å‘¨é‚Šæœ€å¾Œæ¡è²·ï¼Œæ¨è–¦ï¼šè©ã®æœˆã€ç‰›èˆŒé¤…ä¹¾ã€æ¯›è±†é»å¿ƒ",
          "transport": "æ­¥è¡Œ",
          "cost": 5000,
          "currency": "JPY",
          "lat": 38.2602,
          "lng": 140.8824,
          "tags": ["ğŸ›ï¸ ä¼´æ‰‹ç¦®"]
        },
        {
          "time": "11:00",
          "name": "ä»™å°å¤§éƒ½æœƒé£¯åº—é€€æˆ¿",
          "description": "é€€æˆ¿",
          "transport": "",
          "cost": 0,
          "currency": "JPY",
          "lat": 38.2568,
          "lng": 140.8808,
          "tags": ["é€€æˆ¿"]
        },
        {
          "time": "11:30",
          "name": "ä»™å°é§… â†’ ä»™å°ç©ºæ¸¯",
          "description": "å‰å¾€æ©Ÿå ´",
          "transport": "ç©ºæ¸¯ç·š (25åˆ†)",
          "cost": 660,
          "currency": "JPY",
          "lat": 38.1396,
          "lng": 140.9169,
          "tags": ["âœˆï¸ äº¤é€š"]
        },
        {
          "time": "13:35",
          "name": "ä»™å°ç©ºæ¸¯ (SDJ)",
          "description": "è¾¦ç†ç™»æ©Ÿæ‰‹çºŒï¼Œè¿”å›å°ç£",
          "transport": "",
          "cost": 0,
          "currency": "JPY",
          "lat": 38.1396,
          "lng": 140.9169,
          "tags": ["âœˆï¸ æ­¸åœ‹"]
        }
      ],
      "accommodation": "è¿”åœ‹",
      "accommodation_cost": 0,
      "accommodation_currency": "JPY"
    }
  ]
}
